{
  "routes": {
    "R42": {
      "id": "R42",
      "name": "Route 42: Hoskote - Nandagudi - Kolar",
      "stops": [
        "Hoskote",
        "Nandagudi",
        "Kolar"
      ],
      "corridor": [
        { "lat": 13.0699, "lng": 77.7985 },
        { "lat": 13.1200, "lng": 78.1300 }
      ]
    },
    "R10": {
      "id": "R10",
      "name": "Route 10: Chikkaballapur - Sidlaghatta",
      "stops": [
        "Chikkaballapur",
        "Sidlaghatta"
      ],
      "corridor": [
        { "lat": 13.4326, "lng": 77.7275 },
        { "lat": 13.3881, "lng": 77.8624 }
      ]
    },
    "R101": {
      "id": "R101",
      "name": "Route 101: Majestic - Electronic City",
      "stops": [
        "Majestic",
        "Shantinagar",
        "Silk Board",
        "Electronic City"
      ],
      "corridor": [
        { "lat": 12.9763, "lng": 77.5710 },
        { "lat": 12.9177, "lng": 77.6228 },
        { "lat": 12.8399, "lng": 77.6770 }
      ]
    },
    "R102": {
      "id": "R102",
      "name": "Route 102: Yelahanka - Hebbal - MG Road",
      "stops": [
        "Yelahanka",
        "Hebbal",
        "Mekhri Circle",
        "MG Road"
      ],
      "corridor": [
        { "lat": 13.1007, "lng": 77.5963 },
        { "lat": 13.0358, "lng": 77.5970 },
        { "lat": 12.9756, "lng": 77.6050 }
      ]
    },
    "R103": {
      "id": "R103",
      "name": "Route 103: Kengeri - Mysore Road - Vijayanagar",
      "stops": [
        "Kengeri",
        "Rajarajeshwari Nagar",
        "Mysore Road",
        "Vijayanagar"
      ],
      "corridor": [
        { "lat": 12.9141, "lng": 77.4874 },
        { "lat": 12.9365, "lng": 77.5200 },
        { "lat": 12.9710, "lng": 77.5360 }
      ]
    }
  },
  "alternatives": {
    "R42": {
      "a1": {
        "name": "Hoskote Auto Union",
        "phone": "+91 9900011223"
      },
      "a2": {
        "name": "Suresh Shared Auto",
        "phone": "+91 8877665544"
      }
    },
    "R10": {
      "a1": {
        "name": "Chikkaballapur Auto Stand",
        "phone": "+91 9988001122"
      }
    },
    "R101": {
      "a1": {
        "name": "Majestic Shared Auto",
        "phone": "+91 9876543210"
      },
      "a2": {
        "name": "Electronic City Auto Service",
        "phone": "+91 9988776655"
      }
    },
    "R102": {
      "a1": {
        "name": "Hebbal Auto Stand",
        "phone": "+91 9123456789"
      }
    },
    "R103": {
      "a1": {
        "name": "Kengeri Shared Auto",
        "phone": "+91 9012345678"
      }
    }
  }
}